stop_name	mainTrafficType	lat	lon
Albertov	tram	50.0672455	14.421648
Ametystová	bus	49.9882	14.3622169
Amforová	bus	50.04185	14.3272839
Anděl	metroB	50.07193	14.4036312
Antala Staška	bus	50.0416946	14.4443111
Apolinářská	bus	50.07151	14.42648
Arbesovo náměstí	tram	50.07625	14.4042015
Arena Libeň jih	tram	50.1031036	14.4933529
Argentinská	bus	50.1036758	14.4434347
Archeologická	bus	50.0435677	14.3368835
Avia Letňany	bus	50.14186	14.5154915
Baba I	bus	49.9979324	14.4150791
Baba II	bus	49.99959	14.41526
Bachova	bus	50.0311852	14.5093145
Bakovská	bus	50.13508	14.5498142
Balabenka	tram	50.1047554	14.4828053
Balkán	bus	50.0954	14.4962654
Baně	bus	49.9525757	14.3790865
Barrandovská	bus	50.03153	14.3958941
Bártlova	bus	50.1190147	14.6328907
Barvy a laky	bus	50.06549	14.5364933
Basilejské náměstí	bus	50.0870628	14.4705544
Bašteckého	bus	50.0399132	14.3363791
Baterie	tram	50.092392	14.3698292
Bazar	bus	50.098793	14.671629
Bazén Hloubětín	bus	50.10452	14.5357914
Bazovského	bus	50.06735	14.3079672
Bečovská	bus	50.04282	14.5870714
Běchovice	bus	50.08086	14.6176043
Belárie	tram	50.01361	14.4018812
Bělocerkevská	bus	50.0726051	14.4702988
Benice	bus	50.01357	14.6049852
Benkova	bus	50.03793	14.4990969
Bertramka	tram	50.07223	14.3932905
Betáň	bus	50.0071831	14.4796171
Betonárka	bus	50.0367126	14.5747881
Bílá Hora	tram	50.0755463	14.3227892
Bílá labuť	tram	50.090168	14.4354715
Bílenecké náměstí	bus	50.14964	14.442481
Bílý Beránek	bus	50.0612	14.3104906
Biskupcova	tram	50.0885429	14.4687958
Blatiny	tram	50.0657043	14.3036213
Blatnická	bus	50.0643	14.2705
Blatov	bus	50.0785866	14.646183
Blatov sever	bus	50.08279	14.6451569
Blažimská	bus	50.0425835	14.49285
Bludovická	bus	50.135994	14.5113134
Bohdalec	bus	50.06055	14.4695005
Bohdalecká	bus	50.0566177	14.4738007
Bohemians	tram	50.0662041	14.4541845
Bohnické údolí	bus	50.1357231	14.4120331
Bojasova	bus	50.13259	14.4624643
Boletická	bus	50.1327324	14.5137024
Bolevecká	bus	50.0430336	14.5550671
Boloňská	bus	50.047184	14.5557
Bořislavka	metroA	50.0985222	14.36455
Botanická zahrada	tram	50.0705	14.4196062
Botanická zahrada Malešice	bus	50.0886726	14.5138617
Botanická zahrada Troja	bus	50.11897	14.4099007
Branické náměstí	bus	50.0347252	14.4140663
Braunova	tram	50.061882	14.4025393
Brechtova	bus	50.0355339	14.5172462
Breitcetlova	bus	50.10606	14.5749159
Brodecká	bus	50.0887642	14.3233891
Brodského	bus	50.03855	14.5032673
Brumlovka	bus	50.0480957	14.45506
Bruselská	tram	50.07313	14.4333019
Brusnice	tram	50.0929756	14.3917332
Bryksova	bus	50.1022835	14.5790424
Břeclavská	bus	50.0957832	14.54606
Břetislavka	bus	50.12324	14.389533
Břevnovská	bus	50.0856628	14.3650436
Břevnovský klášter	tram	50.08318	14.35901
Březiněves	bus	50.1646919	14.4838972
Březiněveská	tram	50.1260262	14.4571247
Bubenská	bus	50.0981026	14.4365892
Budějovická	metroC	50.04476	14.4475908
Budovec	bus	50.13385	14.3838673
Bucharova	bus	50.0541649	14.3392105
Bukovinská	bus	50.14409	14.5767193
Bulovka	tram	50.11606	14.4681492
Butovická	bus	50.05155	14.3626308
Cementárna Radotín	bus	49.99382	14.342617
Centrum Zahradní Město	bus	50.05635	14.5065
Cikánka	bus	49.9974823	14.3225832
Cílkova	bus	50.01645	14.4434671
Ciolkovského	tram	50.0879974	14.307127
Ctěnice	bus	50.1457748	14.5575333
Ctěnický zámek	bus	50.1482735	14.562417
Cukrovar Čakovice	trolleybus	50.15155	14.5191679
Cukrovar Modřany	bus	49.9986	14.4064217
Čakovice	trolleybus	50.1518059	14.5288191
Čakovická	bus	50.11902	14.51895
Čakovický zámek	trolleybus	50.15167	14.5216837
Čechova čtvrť	tram	50.00224	14.4096966
Čechova škola	bus	50.117382	14.4242983
Čechovo náměstí	tram	50.0680656	14.4594707
Čechtická	bus	50.0207176	14.4450006
Čechův most	tram	50.0940475	14.41689
Černická	bus	50.08015	14.5059843
Černínova	bus	50.088974	14.4622927
Černý kůň	tram	50.02308	14.4037323
Černý Most	metroB	50.1091156	14.5771332
Černý vrch	bus	50.0682831	14.3872833
Čertousy	bus	50.1223946	14.6351891
Čertův vršek	bus	50.1171341	14.4739847
Červeňanského	bus	50.03919	14.335083
Červený Vrch	tram	50.09684	14.352972
Českobrodská	bus	50.0918121	14.5329638
Českolipská	bus	50.1265373	14.5015936
Českomalínská	bus	50.10479	14.4035692
Českomoravská	metroB	50.10593	14.4934387
Čimice	bus	50.1407166	14.4308338
Čimický háj	bus	50.1275673	14.4353666
Čínská	bus	50.10895	14.3946676
Ďáblice	bus	50.14851	14.4872046
Ďáblický hřbitov	bus	50.1373978	14.4787693
Darwinova	bus	50.0109329	14.409934
Dědina	tram	50.08933	14.3019047
Dědinova	bus	50.03375	14.4836836
Dehtínská	bus	49.97665	14.3447866
Dejvická	metroA	50.10033	14.3914833
Děkanka	bus	50.0536	14.4308672
Dělnická	tram	50.1036568	14.4498167
Dělostřelecká	bus	50.0963	14.3874578
Delta	bus	50.0471878	14.4574938
Depo Hostivař	metroA	50.0765	14.5166826
Depo Kačerov	bus	50.0456772	14.4703465
Depo Zličín	bus	50.0533257	14.2775774
Dercsenyiho	bus	50.092247	14.5799084
Dětská nemocnice Karlov	bus	50.07078	14.4285545
Diskařská	bus	50.07909	14.3827591
Divadlo Gong	tram	50.1067924	14.4885988
Divadlo Horní Počernice	bus	50.1168175	14.6217508
Divadlo Na Fidlovačce	tram	50.06483	14.4362841
Divadlo pod Palmovkou	tram	50.10566	14.4727526
Dívčí hrady	bus	50.05585	14.3991508
Divoká Šárka	tram	50.0926	14.32361
Dlouhá třída	tram	50.09167	14.42754
Do Čertous	bus	50.12269	14.6109552
Do Chuchle	bus	50.0175858	14.3570614
Do Koutů	bus	49.99194	14.4165
Do Lipan	bus	50.00842	14.6265306
Do Rybníčků	bus	50.14965	14.4452
Dobeška	bus	50.04215	14.416317
Dobratická	trolleybus	50.1303177	14.5086508
Dobročovická	bus	50.07341	14.5051069
Dobronická	bus	50.0109825	14.471467
Doležalova	bus	50.1019173	14.5706511
Doliny	bus	50.0574226	14.4254436
Dolní Černošice	bus	49.96297	14.3323708
Dolní Chabry	bus	50.1510353	14.4375668
Dolní Měcholupy	bus	50.0565	14.5620842
Dolní Počernice	bus	50.0849838	14.5772009
Dolní Šárka	bus	50.11555	14.37425
Dolnočernošická	bus	49.9598236	14.3290415
Dolnokrčská	bus	50.035984	14.4426336
Dolnokřeslická	bus	50.0242767	14.5605345
Dolnoměcholupská	bus	50.0606	14.5567255
Dolnopočernický hřbitov	bus	50.0911636	14.5772362
Domov seniorů Ďáblice	bus	50.13546	14.4741259
Donatellova	bus	50.0726547	14.5082588
Donovalská	bus	50.0374	14.5088844
Dopravní hřiště Vypich	bus	50.08169	14.3438711
Dostihová	bus	50.0125275	14.3939095
Dreyerova	bus	50.0363159	14.3828335
Drinopol	tram	50.0839081	14.3706675
Drobná	bus	50.07283	14.55634
Druhanická	bus	50.07228	14.6528292
Družná	bus	50.0120659	14.4168005
Dřevařská	bus	50.12632	14.56448
Dubeč	bus	50.06176	14.5961342
Dubeček	bus	50.05602	14.5800676
Dubečská	tram	50.0654945	14.5018749
Dubečský hřbitov	bus	50.0531235	14.5801487
Dukla-Juliska	bus	50.1107	14.3859167
Dunajecká	bus	50.12573	14.4266272
Důstojnické domy	bus	50.12427	14.5319748
Dvorce	tram	50.0477257	14.4143839
Dvorní	bus	50.1475334	14.4483843
Dvořákova	bus	50.14526	14.4375324
Dyrinka	bus	50.10765	14.3744669
Elišky Přemyslovny	bus	49.97494	14.3931131
Farkáň	bus	50.0615959	14.3827457
Ferrariho	bus	50.0413132	14.30453
Filadelfie	bus	50.04862	14.4531975
Filmové ateliéry Barrandov	bus	50.0311966	14.392292
Filosofská	bus	50.022	14.4282675
Flora	metroA	50.07792	14.4615164
Florenc	metroBC	50.0912437	14.4391136
Formanská	bus	50.0144958	14.5434151
Frančíkova	bus	50.0108337	14.3568172
Františka Veselého	bus	50.12156	14.619998
Franty Kocourka	bus	50.06065	14.403367
Fruta	bus	50.0430679	14.5821009
Fryčovická	trolleybus	50.1394157	14.5051384
Generála Janouška	bus	50.1024857	14.5639505
Geologická	tram	50.0365	14.387
Gercenova	bus	50.0500145	14.5435171
Goetheho	bus	50.1074371	14.4040918
Grussova	bus	50.03455	14.3704605
Habrová	bus	50.08794	14.4914856
Hadovitá	bus	50.0515556	14.4567366
Hadovka	tram	50.0994225	14.3751459
Háje	metroC	50.03046	14.5274429
Hájek	bus	50.050518	14.6280842
Hájová	bus	50.01735	14.6525841
Halenkovská	bus	50.0628853	14.2868671
Hamplova	bus	50.1597557	14.5257511
Hanspaulka	bus	50.1042061	14.372982
Hasičská	bus	50.07828	14.6036787
Hasičská stanice Modřany	tram	50.0059433	14.4396925
Hasova	bus	50.01539	14.4268045
Haštalské náměstí	bus	50.091	14.42404
Hejtmanská	bus	50.1053925	14.5570335
Hellichova	tram	50.08394	14.4043188
Hercovka	tram	50.1220741	14.4512243
Hládkov	tram	50.0887	14.3875685
Hlávkova	bus	50.0368233	14.3145828
Hlavní	bus	50.0462265	14.4876175
Hlavní nádraží	metroC	50.0860825	14.4351139
Hlohová	bus	50.0564346	14.5020008
Hloubětín	metroB	50.10618	14.5366907
Hlubočepy	tram	50.0417938	14.4043875
Hlušičkova	tram	50.0640144	14.31641
Hněvkovského	bus	50.03227	14.5185871
Högerova	bus	50.03455	14.3806
Holečkova	bus	50.0742226	14.3949718
Holešovická tržnice	tram	50.09834	14.4443007
Holoubkovská	bus	50.0438652	14.5597973
Holyně	tram	50.0271835	14.3582382
Holýšovská	bus	50.0402527	14.3182335
Horčičkova	bus	50.032	14.5344172
Horky	tram	50.06145	14.4466267
Horní cesta	bus	50.033268	14.39645
Horní Lysolaje	bus	50.1296043	14.3655291
Hornocholupická	bus	49.997467	14.4251671
Hostavice	bus	50.0902176	14.5634842
Hostivařská	tram	50.0527725	14.5294981
Hostivařské náměstí	bus	50.0501175	14.5263
Hostivařský hřbitov	bus	50.0467339	14.5233173
Hostivařský pivovar	bus	50.04651	14.5496216
Hostýnská	bus	50.0810661	14.495532
Hotel Golf	tram	50.06803	14.3466673
Hradčanská	metroA	50.0972977	14.4048729
Hradební	bus	50.0907478	14.427145
Hrazanská	bus	49.9775848	14.4395132
Hrdlořezská	bus	50.0937843	14.5095472
Hrnčíře	bus	49.999218	14.51675
Hrnčířský hřbitov	bus	50.00109	14.5163221
Hřebenka	bus	50.0751	14.39035
Hříbková	bus	50.0204	14.5804672
Hulická	bus	50.0777664	14.6602678
Huntířovská	bus	50.12955	14.5449171
Hůrka	metroB	50.04795	14.3403835
Hutě	bus	50.1084137	14.5585079
Hutmanka	bus	50.05712	14.3693132
Hybšmanka	bus	50.07795	14.38045
Chaplinovo náměstí	tram	50.0352974	14.3774252
Chmelnice	tram	50.092556	14.4869614
Choceradská	bus	50.0431442	14.4902639
Chodov	metroC	50.0307655	14.49146
Chodovec	bus	50.0395279	14.4904394
Chodovická	bus	50.1126	14.6177273
Chodovská	tram	50.0568962	14.46838
Chodovská tvrz	bus	50.0329475	14.5004253
Cholupice	bus	49.9869	14.4454842
Cholupické náměstí	bus	49.9884071	14.4490843
Cholupický hřbitov	bus	49.98423	14.4610243
Cholupický vrch	bus	49.9941521	14.4349337
Chotkovy sady	tram	50.0950241	14.4090662
Chvaly	bus	50.1126671	14.5972176
Chýnovská	bus	50.01635	14.4505339
I. P. Pavlova	metroC	50.07554	14.4305944
IKEA Černý Most	bus	50.10453	14.5885038
IKEM	bus	50.0207024	14.4633169
Invalidovna	metroB	50.0978737	14.4650917
Italská	tram	50.0780334	14.4365168
Ivančická	bus	50.14219	14.5119562
Jahodnice	bus	50.0874367	14.5580835
Jakobiho	bus	50.03308	14.5593538
Jalodvorská	bus	50.0139656	14.4571342
Jana Masaryka	tram	50.073513	14.4406815
Jankovcova	bus	50.1101723	14.4448776
Janovská	bus	50.0405159	14.5668011
Jarníkova	bus	50.0265121	14.4941845
Jemnická	bus	50.0494728	14.4589262
Jenerálka	bus	50.1078453	14.353838
Jeřická	bus	50.11006	14.6077118
Jesenická	bus	50.0581322	14.4931841
Jezerka	bus	50.0574837	14.4430676
Ježovická	bus	50.0697327	14.64965
Jilemnická	bus	50.13743	14.5503092
Jílovská	bus	50.0263977	14.43011
Jindřišská	tram	50.085083	14.4301577
Jinonice	metroB	50.0543671	14.3700666
Jinonická	bus	50.0693855	14.3775167
Jiráskova čtvrť	bus	50.0941	14.5458994
Jiráskovo náměstí	tram	50.076252	14.4141579
Jirčanská	bus	50.0059624	14.4593525
Jiřího z Poděbrad	metroA	50.0772552	14.4504709
Jitřní	bus	50.02402	14.41307
Jiviny	bus	50.0777779	14.3049688
Jizbická	bus	50.1101646	14.622798
Jižní Město	bus	50.034317	14.5383844
Jordánská	bus	50.11104	14.5627928
K Austisu	bus	50.02118	14.3411369
K Barrandovu	tram	50.0354729	14.38343
K Cikánce	bus	49.9975	14.3417168
K Drsnici	bus	50.14268	14.384613
K Dubečku	bus	50.0553665	14.5648165
K Fialce	bus	50.0558853	14.3293667
K Hájům	bus	50.0549545	14.3240452
K Holyni	bus	50.020565	14.3600588
K Horoměřicům	bus	50.13248	14.36852
K Housličkám	bus	50.1299	14.3664656
K Chatám	bus	49.9481239	14.3753471
K Juliáně	bus	50.1178474	14.3010206
K Lesoparku	bus	50.0497	14.53915
K Letišti	trolleybus	50.0956345	14.2935457
K Letňanům	bus	50.14351	14.484067
K Lipanům	bus	50.01575	14.6064339
K Netlukám	bus	50.03349	14.609724
K Noskovně	bus	50.1114655	14.3253
K Obecním hájovnám	bus	50.04293	14.5150671
K Pitkovičkám	bus	50.0246	14.5906343
K Říčanům	bus	50.01535	14.6322012
K Teplárně	bus	50.1687355	14.52105
K Trninám	bus	50.06838	14.3111324
K Třebonicům	bus	50.03716	14.29833
K Tuchoměřicům	bus	50.1161	14.2916
K Vystrkovu	bus	49.99932	14.411006
K Zelenči	bus	50.1232872	14.62397
K Žižkovu	bus	50.09959	14.496417
Kabešova	tram	50.1024628	14.5082712
Kablo	bus	50.06209	14.5383654
Kačerov	metroC	50.04197	14.4608793
Kajetánka	bus	50.0865173	14.3709326
Kalinův mlýn	bus	50.111	14.3675461
Kamenická	tram	50.09957	14.4288549
Kamenolom Zbraslav	bus	49.9594154	14.3940687
Kamýcká	bus	50.1306	14.3827486
Kapitána Stránského	bus	50.1033249	14.5761757
Kardausova	bus	50.0665741	14.5530815
Karenova	bus	50.063385	14.3683062
Karlínské náměstí	tram	50.09275	14.44518
Karlovo náměstí	metroB	50.0753021	14.4191093
Karlovy lázně	tram	50.08457	14.4134665
Karlštejnská	bus	50.05264	14.3595819
Kateřinky	bus	50.0205	14.5202675
Kateřinská	bus	50.074337	14.426158
Katovická	bus	50.1321335	14.4279
Kavalírka	tram	50.07004	14.37063
Kavčí hory	bus	50.04898	14.4295416
Kavkazská	bus	50.06955	14.4660168
Kazanka	bus	50.11738	14.4275017
Kazín	bus	49.9510422	14.340826
Kazínská	bus	50.0116653	14.3863525
Kbelská	bus	50.1050453	14.5324688
Kbelský hřbitov	bus	50.1442871	14.5467539
Kbelský lesopark	bus	50.1353378	14.5357122
Kbelský pivovar	bus	50.1304131	14.5474339
Kbely	bus	50.1308823	14.5529337
Ke Březině	bus	49.9932251	14.4678965
Ke Hrázi	bus	50.08682	14.5762558
Ke Kaménce	bus	50.0715179	14.3024168
Ke Kateřinkám	bus	50.02538	14.5155725
Ke Kazínu	bus	49.95641	14.3423414
Ke Klíčovu	bus	50.1127472	14.5064554
Ke Koulce	bus	50.06165	14.4045734
Ke Kříži	bus	50.02949	14.5944433
Ke Schodům	bus	50.014183	14.4158173
Ke Smrčině	bus	50.0176849	14.5251637
Ke Stírce	tram	50.122673	14.4558678
Ke Štěrkovně	bus	49.9569778	14.3714857
Ke Xaverovu	bus	50.0997162	14.6236839
Kelerka	trolleybus	50.11532	14.490201
Kesnerka	bus	50.0578842	14.4020672
Khodlova	bus	50.1102867	14.6040707
Klamovka	tram	50.0707	14.3806181
Klánova	bus	50.0213661	14.4237843
Klánovice	bus	50.0989532	14.68594
Klárův ústav	bus	50.0277023	14.45715
Klášterecká	bus	50.14596	14.4558115
Klíčov	bus	50.1168976	14.5142756
Klíčovská	bus	50.11745	14.5079508
Klikovka	bus	50.05705	14.4297676
Kloboučnická	bus	50.0605659	14.4509344
Klukovice	bus	50.0360832	14.3665028
Kněžská luka	tram	50.092186	14.4929676
Knovízská	bus	50.04137	14.5001335
Kobrova	bus	50.07605	14.3982668
Kobyliská střelnice	bus	50.1309052	14.4608755
Kobylisy	metroC	50.1246834	14.4563112
Kodaňská	bus	50.07075	14.4608173
Kodymova	bus	50.0514832	14.3373432
Koh-i-noor	tram	50.06758	14.4614086
Kokořínská	bus	50.1457024	14.4852171
Kolbenova	metroB	50.1106224	14.5158482
Koleje Jižní Město	bus	50.0172844	14.499505
Koleje Strahov	bus	50.0805	14.390193
Koleje Větrník	bus	50.0887642	14.3511963
Koloděje	bus	50.0601	14.6405172
Kolodějská obora	bus	50.06237	14.6280746
Kolonie	bus	50.0932922	14.525363
Kolová	bus	49.9782753	14.3498793
Kolovraty	bus	50.0160179	14.6212673
Komárovská	bus	50.1152344	14.62145
Komořany	bus	49.9920654	14.4104176
Konvářka	bus	50.05462	14.4018335
Korandova	bus	50.02247	14.4210835
Korek	bus	50.1055	14.3596
Korunovační	tram	50.0997047	14.4205809
Korytná	bus	50.0644	14.4937258
Kostrounek	bus	49.9694824	14.3823
Kotlářka	tram	50.0695648	14.3629227
Kotorská	tram	50.05447	14.436738
Koupaliště Čakovice	trolleybus	50.1475754	14.5250692
Kovárna	bus	50.1174622	14.4166059
Kovářova - KD Mlejn	bus	50.0484352	14.3177834
Kovošrot	bus	50.061985	14.5422955
Krahulčí	bus	50.1071	14.60406
Krakov	bus	50.1276855	14.4168005
Královice	bus	50.03693	14.6355839
Královická	bus	50.0649834	14.5158
Královka	tram	50.0848961	14.380744
Královský letohrádek	tram	50.0942268	14.4049978
Krčská	bus	50.0436478	14.442112
Krčský hřbitov	bus	50.04651	14.439642
Krejcárek	tram	50.0951347	14.4750986
Krematorium Motol	tram	50.066227	14.3264589
Krematorium Strašnice	tram	50.07732	14.48472
Krňovická	bus	50.10193	14.65907
Krocínka	bus	50.1160851	14.5034676
Krymská	tram	50.07198	14.4469948
Krystalová	trolleybus	50.15596	14.5225277
Křeslice	bus	50.0233841	14.5652018
Křižíkova	metroB	50.0941963	14.4517746
Křížová	tram	50.0631638	14.404707
Kubánské náměstí	tram	50.0708847	14.47785
Kublov	tram	50.0543976	14.4181223
Kudrnova	bus	50.0720673	14.34325
Kuchyňka	bus	50.1173019	14.4518242
Kukulova	bus	50.078495	14.3445435
Kuliška	bus	50.10775	14.3644819
Kundratka	trolleybus	50.112484	14.47976
Kunratice	bus	50.0129051	14.4882956
Kunratická škola	bus	50.0133667	14.4828444
Kusá	bus	50.0870247	14.3609915
Kutnohorská	bus	50.06365	14.552557
Kutvirtova	bus	50.05727	14.3927727
Kvasinská	bus	50.0627251	14.6424837
Květinková	bus	50.09028	14.4890976
Květnová	bus	50.14277	14.4779005
Kyje	bus	50.09795	14.5494175
Kyjský hřbitov	bus	50.0931931	14.5467262
Kyselova	tram	50.12618	14.4630222
Labe	bus	50.0138	14.4209337
Ládví	metroC	50.1264839	14.4701414
Lahovice	bus	49.98987	14.3987007
Lahovický most	bus	49.9954338	14.3980827
Lahovičky	bus	50.0000648	14.3956795
Lahovská	bus	49.9982758	14.36703
Lánská	bus	50.0985565	14.540205
Laurová	tram	50.0611458	14.398015
Lazarská	tram	50.07924	14.4199219
Lázeňka	bus	50.0592155	14.5860176
Lehárova	bus	50.0087357	14.4062891
Lehovec	tram	50.106884	14.5472269
Lešanská	bus	50.0458336	14.4829006
Letecké muzeum	bus	50.1258163	14.5357008
Letenské náměstí	tram	50.09995	14.4240913
Letiště	undefined	50.1060867	14.2719526
Letňanská	trolleybus	50.1224556	14.5070572
Letňany	metroC	50.1259651	14.5167828
Levského	tram	50.0051231	14.4360819
Lhotecký les	bus	50.0156021	14.4371843
Lhotka	bus	50.0210457	14.4383516
Liběchovská	bus	50.1441269	14.4722242
Libeňská	bus	50.1366	14.43015
Libeňské doky	bus	50.1052475	14.4704266
Libeňský most	tram	50.1034279	14.4638062
Libeňský zámek	tram	50.10831	14.4722
Líbeznická	tram	50.1292877	14.4552126
Libocká	bus	50.0869675	14.3295069
Libošovická	bus	50.1109	14.5999012
Libuš	tram	50.0092125	14.4554539
Lidečská	bus	50.0607071	14.3012409
Lihovar	tram	50.05143	14.4092245
Limuzská	tram	50.0788345	14.5083342
Lipanská	tram	50.0839157	14.4537115
Lipany	bus	49.99942	14.6177626
Lipence	bus	49.95976	14.3526087
Lipnická	bus	50.1131058	14.56017
Lipovická	bus	49.99671	14.4675655
Lísek	bus	50.0426178	14.4563341
Litochlebské náměstí	bus	50.031498	14.5054235
Litovický potok	bus	50.088707	14.3263988
Livornská	bus	50.04102	14.551755
Lnářská	bus	50.0282478	14.5979643
Logistická zóna Horní Počernice	bus	50.11541	14.5917606
Lohenická	bus	50.14955	14.5878172
Lochkov	bus	50.0031853	14.3525667
Lomnická	bus	50.087513	14.5635519
Lomy	bus	49.99827	14.3299341
Lotyšská	tram	50.1034851	14.3949137
Luka	metroB	50.0455	14.3210669
Lukášova	bus	50.0882378	14.4583836
Lukavecká	bus	50.11603	14.61732
Lužiny	metroB	50.04448	14.3297415
Lýskova	bus	50.0508	14.3094835
Lysolaje	bus	50.1269341	14.3667507
Madlina	bus	50.1204338	14.4846506
Macharovo náměstí	bus	50.0942	14.3821
Malá Chuchle	bus	50.024807	14.3944826
Malá Ohrada	bus	50.04027	14.3399963
Malešická	bus	50.0862846	14.482
Malešická továrna	tram	50.0772743	14.5247145
Malešické náměstí	bus	50.08463	14.5103807
Malešický park	bus	50.08647	14.4958725
Malostranská	metroA	50.0903625	14.4101009
Malostranské náměstí	tram	50.08798	14.4043283
Malovanka	tram	50.0855942	14.3825035
Malvazinky	bus	50.06497	14.3883
Malý Berlín	bus	50.1033249	14.4358139
Malý Břevnov	tram	50.07591	14.3312407
Maniny	tram	50.1033478	14.4526577
Mariánské náměstí	bus	50.087326	14.4173632
Marjánka	tram	50.0845375	14.3758984
Masarykovo nádraží	tram	50.0876846	14.4325132
Masná	bus	50.08923	14.4241171
Maškův mlýn	bus	49.99885	14.3185005
Matějská	bus	50.11498	14.3840036
Měděnecká	bus	50.1496849	14.4488506
Měchenická	bus	50.0499649	14.4888468
Městský archiv Chodovec	bus	50.0410767	14.4952536
Metodějova	bus	50.02616	14.5214434
Mezi Hřbitovy	tram	50.0816574	14.4717417
Michelangelova	bus	50.0700722	14.5098219
Michelská	tram	50.0550652	14.4538288
Michnovka	bus	50.0396347	14.3975
Mikulova	bus	50.03188	14.515
Milevská	bus	50.0486145	14.4302711
Milíčov	bus	50.0269737	14.5306749
Mílová	bus	50.0100746	14.466855
Mirovická	bus	50.1314354	14.4527836
Miškovice	trolleybus	50.15602	14.5420055
Mladějovská	bus	50.13255	14.56035
Mládí	bus	50.0500336	14.3216333
Modrá škola	bus	50.0304337	14.524334
Modřanská rokle	tram	50.0064163	14.4290285
Modřanská škola	tram	50.0092239	14.4030533
Mokrá	bus	50.0335464	14.5042439
Mokřanská	bus	50.06309	14.5268488
Moráň	tram	50.0740242	14.4187307
Moravanská	bus	50.1478157	14.5784178
Morseova	bus	50.03515	14.558836
Most Závodu míru	bus	49.972683	14.3951159
Motol	tram	50.0676727	14.3365221
Mototechna	bus	50.0540924	14.3154383
Mrákovská	bus	50.0278358	14.3009768
Mrázovka	bus	50.06833	14.3925486
Mrkosova	bus	50.00736	14.3810139
Murmanská	bus	50.0730667	14.4807167
Můstek	metroAB	50.08312	14.4249659
Muzeum	metroAC	50.07884	14.432457
Myslíkova	tram	50.07817	14.4190493
Myšlínská	bus	50.0621872	14.5346174
Na Beránku	bus	49.99759	14.4286757
Na Blanici	bus	50.03701	14.5832272
Na Bojišti	bus	50.0728569	14.4274225
Na Boleslavce	bus	50.169796	14.4839725
Na Cikorce	bus	50.01214	14.4126663
Na Fabiánce	bus	50.1613426	14.4835958
Na Formance	bus	50.0165558	14.5315075
Na Groši	tram	50.0529747	14.524025
Na Havránce	bus	50.0065346	14.4101839
Na Homoli	tram	50.0763245	14.5303459
Na Hroudě	tram	50.070507	14.4887
Na Hřebenech	bus	50.05182	14.4284506
Na Hůrce	bus	50.0780067	14.2920284
Na Hvězdárně	bus	50.0051041	14.3750162
Na Jelenách	bus	50.02199	14.4999971
Na Knížecí	tram	50.06852	14.4064989
Na Košíku	bus	50.04713	14.51497
Na Kovárně	bus	50.1178246	14.6280251
Na Křečku	bus	50.04397	14.567
Na Lhotkách	bus	49.953392	14.3682928
Na Lukách	bus	50.09741	14.511467
Na Lysinách	bus	50.02231	14.4124413
Na Míčánkách	bus	50.07125	14.46484
Na Mlýnici	bus	50.1142159	14.3201666
Na Mlýnku	bus	50.1119347	14.3733168
Na Okraji	undefined	50.09023	14.344388
Na Padesátém	bus	50.0644836	14.5050173
Na Padesátníku	bus	50.1025429	14.2892971
Na Palouku	bus	50.0803261	14.4886522
Na Parcelách	bus	50.1105	14.3356009
Na Pastvinách	bus	50.1009827	14.3445673
Na Pazderce	bus	50.1250648	14.4175129
Na Petynce	bus	50.08862	14.38089
Na Pískách	tram	50.0989571	14.3696918
Na Plácku	bus	49.9659	14.394352
Na Planině	bus	50.0394936	14.4295673
Na Pramenech	bus	50.1486053	14.4970407
Na Proutcích	bus	50.0132523	14.5027838
Na Radosti	bus	50.0605164	14.2989674
Na Santince	bus	50.10702	14.3885841
Na Sklonku	bus	50.06687	14.36382
Na Slovance	bus	50.1247368	14.4725742
Na Smetance	bus	50.0799522	14.4376507
Na Srpečku	bus	50.0379753	14.3998747
Na Staré cestě	bus	50.0383377	14.44199
Na Strži	bus	50.0435181	14.4375
Na Svěcence	bus	50.10063	14.6118374
Na Šabatce	bus	49.98876	14.4086332
Na Šafránce	bus	50.0755	14.3474836
Na Štamberku	bus	50.14657	14.4786282
Na Vaňhově	bus	50.0800858	14.6261082
Na Vartě	bus	50.0454521	14.5574121
Na Veselí	tram	50.05624	14.4412212
Na Viničkách	bus	49.9800453	14.3521824
Na Vrchách	bus	50.03945	14.5876675
Na Vrstevnici	bus	50.03665	14.4353342
Na Vypichu	bus	50.08402	14.3402052
Nábřeží Kapitána Jaroše	tram	50.09632	14.4312992
Nad Běchovicemi	bus	50.0921021	14.6232843
Nad Dívčími hrady	bus	50.0546265	14.3979607
Nad Dvorem	bus	50.0096321	14.6334677
Nad Džbánem	tram	50.0939445	14.3367186
Nad Habrovkou	bus	50.1093826	14.3449669
Nad Havlem	bus	50.0340843	14.448616
Nad Jetelkou	bus	50.11525	14.4966431
Nad Klamovkou	bus	50.0727158	14.37683
Nad Konvářkou	bus	50.0538063	14.399128
Nad Košíkem	bus	50.045166	14.5192509
Nad Laurovou	bus	50.0623322	14.3961859
Nad Markétou	bus	50.084198	14.3476372
Nad Pahorkem	bus	50.0428619	14.4877834
Nad Parkánem	bus	50.0125427	14.6314726
Nad Rybníkem	bus	50.0873146	14.58613
Nad Rybníky	bus	50.0371	14.447484
Nad Trojou	tram	50.12033	14.4388819
Nad Závistí	bus	49.98052	14.4042006
Nad Zlíchovem	bus	50.0452652	14.4042215
Nademlejnská	tram	50.10385	14.5246658
Nádraží Běchovice	bus	50.0810165	14.599597
Nádraží Běchovice střed	bus	50.0845	14.6165915
Nádraží Braník	tram	50.02925	14.405406
Nádraží Cibulka	bus	50.0655823	14.363
Nádraží Čakovice	trolleybus	50.14983	14.5203915
Nádraží Dolní Počernice	bus	50.0869942	14.5722265
Nádraží Hlubočepy	bus	50.04103	14.3937826
Nádraží Holešovice	metroC	50.10967	14.43753
Nádraží Horní Měcholupy	bus	50.0478325	14.5650845
Nádraží Horní Počernice	bus	50.1153374	14.6136026
Nádraží Hostivař	tram	50.0533447	14.5365829
Nádraží Jinonice	bus	50.0564346	14.3708591
Nádraží Klánovice	bus	50.0867462	14.6648941
Nádraží Klánovice-sever	bus	50.0877571	14.6654758
Nádraží Krč	bus	50.0354843	14.4435835
Nádraží Kyje	bus	50.0973625	14.5429411
Nádraží Libeň	tram	50.10211	14.50219
Nádraží Modřany	tram	50.00458	14.403307
Nádraží Podbaba	tram	50.1123276	14.3941593
Nádraží Radotín	bus	49.9856262	14.3645325
Nádraží Ruzyně	bus	50.08562	14.30842
Nádraží Řeporyje	bus	50.0317764	14.3091793
Nádraží Satalice	bus	50.1238632	14.57133
Nádraží Uhříněves	bus	50.0338173	14.59216
Nádraží Veleslavín	metroA	50.0959778	14.3483438
Nádraží Velká Chuchle	bus	50.01145	14.3891
Nádraží Vršovice	tram	50.0661125	14.4475842
Nádraží Vysočany	tram	50.1103249	14.499
Nádraží Zahradní Město	tram	50.0622978	14.50424
Nádraží Zbraslav	bus	49.9728661	14.4001169
Nádraží Žvahov - Prosluněná	bus	50.0449028	14.402256
Nádraží Žvahov - V Násypu	bus	50.04467	14.4026289
Nákladové nádraží Žižkov	tram	50.0849724	14.4704285
Náměstí Bratří Synků	tram	50.0645142	14.4405737
Náměstí Jiřího Berana	trolleybus	50.1509361	14.5267324
Náměstí Míru	metroA	50.07501	14.435997
Náměstí Olgy Scheinpflugové	tram	50.03044	14.3620911
Náměstí Před Bateriemi	bus	50.09094	14.3735657
Náměstí Republiky	metroB	50.0887833	14.4300232
Náměstí U Lva	bus	50.03542	14.3157988
Náměstí Winstona Churchilla	bus	50.0841331	14.4403677
Národní divadlo	tram	50.0814133	14.4148855
Národní technická knihovna	bus	50.10349	14.3909025
Národní třída	metroB	50.0811577	14.4195929
Nárožní	bus	50.05348	14.3298044
Násirovo náměstí	bus	50.0015144	14.42158
Naskové	bus	50.06336	14.3608665
Návětrná	bus	50.02294	14.3585978
Navigátorů	trolleybus	50.09349	14.3047419
Nebušice	bus	50.1121178	14.3212
Nedvězí	bus	50.0168	14.6555176
Nemocnice Bohnice	bus	50.1376648	14.418087
Nemocnice Bohnice - Centrální terapie	bus	50.1373177	14.4236231
Nemocnice Bohnice - Divadlo Za plotem	bus	50.1342163	14.4190769
Nemocnice Bohnice - Hlavní vrátnice	bus	50.13615	14.4290724
Nemocnice Bohnice - Interna	bus	50.1360931	14.421196
Nemocnice Bohnice - Ředitelství	bus	50.13401	14.4235611
Nemocnice Bubeneč	bus	50.10777	14.4016333
Nemocnice Bulovka	bus	50.11568	14.463954
Nemocnice Bulovka - gynekologie	bus	50.1161	14.4601192
Nemocnice Bulovka - onkologie	bus	50.1169167	14.4627695
Nemocnice Krč	bus	50.0303841	14.4548836
Nemocnice Motol	metroA	50.07475	14.34045
Nemocnice Na Františku	bus	50.09283	14.421279
Nemocnice Na Homolce	bus	50.07565	14.3545837
Nemocnice pod Petřínem	bus	50.0868835	14.3963528
Nemocnice Vinohrady	bus	50.07662	14.4754963
Nepasické náměstí	bus	50.1037674	14.6587715
Netluky	bus	50.04135	14.6133175
Netřebická	bus	50.129303	14.5728178
Nevanova	bus	50.0660553	14.3115215
Newtonova	bus	50.0350838	14.5518675
Norbertov	bus	50.0911942	14.3776989
Nová kolonie	bus	50.0506172	14.32705
Nová Šárka	trolleybus	50.0930634	14.3146877
Nové Butovice	metroB	50.0511436	14.3532515
Nové Dvory	bus	50.0173035	14.4493227
Nové Komořany	bus	49.99235	14.4194317
Nové Letňany	bus	50.14093	14.5209522
Nové náměstí	bus	50.0311	14.5993509
Nové Petrovice	bus	50.0399551	14.5545874
Nové Pitkovice	bus	50.0172043	14.58531
Nové Podolí	bus	50.04347	14.4287281
Nové Strašnice	tram	50.0778847	14.5106506
Nové Vokovice	bus	50.1005478	14.340827
Novoborská	bus	50.12628	14.4985313
Novodvorská	bus	50.0230179	14.4396229
Novochuchelská	bus	50.00913	14.3847294
Novoměstská radnice	tram	50.0774574	14.4195223
Novoštěrboholská	bus	50.07451	14.5615349
Novovysočanská	bus	50.1002579	14.4914284
Novozámecká	bus	50.0892754	14.5697784
Nový Hloubětín	tram	50.10986	14.5281868
Nový Prosek	trolleybus	50.1209526	14.5039673
Nový Slivenec	bus	50.0265465	14.3731432
Nový Střížkov	bus	50.1185379	14.4839458
Nový Zličín	bus	50.0556679	14.2833424
Nuselská radnice	tram	50.06287	14.442379
Nuselské schody	tram	50.06831	14.4353323
Nušlova	bus	50.0549164	14.3455172
Nymburská	bus	50.1268578	14.558156
Nýrská	bus	49.9773026	14.3325071
Obchodní centrum Čakovice	trolleybus	50.14965	14.50765
Obchodní centrum Černý Most	bus	50.1081429	14.5872488
Obchodní centrum Hostivař	tram	50.0538521	14.5191708
Obchodní centrum Chuchle	bus	50.0182076	14.3922138
Obchodní centrum Lipence	bus	49.9636421	14.3637028
Obchodní centrum Ruzyně	bus	50.0932846	14.2923
Obchodní centrum Sárská	bus	50.0537	14.2970886
Obchodní centrum Štěrboholy	bus	50.0722427	14.5430012
Obchodní centrum Zličín	bus	50.0495529	14.29667
Obchodní náměstí	bus	50.0046043	14.4045143
Obora Hvězda	tram	50.07827	14.3415661
Observatoř Libuš	tram	50.0067329	14.4463511
OC Stromovka	bus	50.10161	14.4305763
Ocelářská	tram	50.10365	14.4880724
Oderská	trolleybus	50.1467628	14.5306807
Odlehlá	bus	50.0982	14.481534
Odra	bus	50.13094	14.4246759
Ohrada	tram	50.09059	14.4690933
Ohradní	bus	50.05237	14.4536009
Ohradské náměstí	bus	50.0373344	14.3354549
Okořská	bus	50.1359062	14.4314823
Okrouhlická	tram	50.1195869	14.4607468
Olgy Havlové	bus	50.0873528	14.4800739
Olšanská	tram	50.0834236	14.46454
Olšanské hřbitovy	tram	50.07814	14.4664564
Olšanské náměstí	tram	50.08249	14.4574671
Opálová	bus	50.0216675	14.3639879
Opatov	metroC	50.0268822	14.5080242
Ordovická	bus	50.06004	14.3321133
Orionka	tram	50.0756149	14.4594955
Ortenovo náměstí	tram	50.1078262	14.44708
Ořechovka	tram	50.09284	14.3795481
Ořešská	bus	50.03045	14.30505
Osadní	bus	50.1032372	14.4464531
Osecká	bus	50.1464844	14.4490175
Ostrčilovo náměstí	tram	50.0650558	14.4252234
Otakara Vrby	bus	50.0766029	14.6033554
Otakarova	tram	50.06549	14.4401016
Otínská	bus	49.9825363	14.3560314
Ovčí hájek	bus	50.0464172	14.3474331
Paceřická	bus	50.1196022	14.6110249
Palackého náměstí	tram	50.07323	14.415247
Palmovka	metroB	50.1024742	14.4733868
Palouček	tram	50.06186	14.4376
Pánkova	bus	50.018116	14.6494341
Pankrác	metroC	50.05187	14.4381676
Park Maxe van der Stoela	tram	50.09068	14.3855448
Park Rajská zahrada	bus	50.08252	14.4440022
Parkoviště Trojský most	bus	50.1156158	14.4369707
Pařížská	bus	50.0894279	14.4191122
Pavelkova	bus	50	14.4279337
Pavlišovská	bus	50.1112938	14.6224289
Pávovské náměstí	bus	50.0931664	14.5402508
Pekárenská	bus	50.04945	14.46395
Pelc Tyrolka	bus	50.1159363	14.4438457
Peluněk	bus	49.9690933	14.3759012
Perlit	bus	50.08574	14.5378971
Pernerova	bus	50.08864	14.4430723
Perspektivní	bus	50.07198	14.557375
Perunova	tram	50.07546	14.454484
Petrské náměstí	bus	50.0913734	14.4319172
Petržílova	bus	49.99912	14.4237337
Petřiny	metroA	50.0882	14.34518
Petýrkova	bus	50.030365	14.4877357
Picassova	bus	50.0353	14.5934677
Pilovská	bus	50.08192	14.6487684
Písečná	bus	50.1259	14.4427843
Písková	bus	50.0029335	14.4175167
Písnice	bus	49.991	14.46825
Píškova	bus	50.04105	14.3334837
Pitkovice	bus	50.0228	14.5783339
Plaňanská	bus	50.08175	14.5005064
Plánická	bus	49.9920464	14.3654413
Platónova	bus	49.9986343	14.4166336
Plošná	bus	50.0683174	14.5181608
Plynárna Michle	tram	50.05655	14.4646091
Plzeňka	tram	50.0637	14.4088173
Pobřežní cesta	tram	50.0342064	14.4074478
Počeradská	bus	50.1392555	14.4519167
Pod Dálnicí	bus	50.0451775	14.4612484
Pod Děvínem	bus	50.05275	14.4061337
Pod Hájem	bus	50.12465	14.3811007
Pod Hradem	bus	50.038166	14.6378841
Pod Chodovem	bus	50.03554	14.4936905
Pod Jezerkou	tram	50.0584	14.4499874
Pod Karlovem	tram	50.06979	14.4328279
Pod Kesnerkou	bus	50.05929	14.4030619
Pod Konvářkou	bus	50.0555344	14.4049673
Pod Královkou	bus	50.0857277	14.378973
Pod Krocínkou	bus	50.1140022	14.5124006
Pod Kyjovem	bus	49.96583	14.3692169
Pod Lahovskou	bus	49.9914551	14.36562
Pod Lipkami	bus	50.07296	14.3731117
Pod Lochkovem	bus	50.0027046	14.3502769
Pod Mezí	bus	50.0269623	14.3553486
Pod Nouzovem	bus	50.1394	14.5513544
Pod Oborou	bus	50.063118	14.636034
Pod Pekařkou	bus	50.0438652	14.4246836
Pod Rapidem	bus	50.0721664	14.48435
Pod Ryšánkou	bus	50.0367	14.4263334
Pod Říhákem	bus	49.9890327	14.3620338
Pod Šafránkou	bus	50.0733	14.3478
Pod Školou	bus	50.0686035	14.3674774
Pod Šmukýřkou	bus	50.06095	14.3755836
Pod Táborem	bus	50.0916023	14.5093069
Pod Třebešínem	bus	50.08095	14.4858675
Pod Vinicí	bus	50.05562	14.4840841
Pod Vsí	bus	50.01127	14.5143175
Pod Vyhlídkou	bus	50.09517	14.3771505
Pod Zatáčkou	bus	49.95604	14.3815432
Pod Žvahovem	bus	50.0434952	14.4030924
Podbělohorská	bus	50.07506	14.3737793
Podhajská pole	bus	50.1301537	14.4309053
Podhoří	bus	50.1227074	14.4007406
Podkovářská	tram	50.10295	14.5134544
Podlužanská	bus	50.0798531	14.6493149
Podnikatelská	bus	50.0870323	14.6173506
Podolská vodárna	tram	50.0598869	14.4193621
Pohořelec	tram	50.0876961	14.3882656
Polesná	bus	50.07825	14.6549177
Polešovická	bus	50.0790634	14.65409
Poliklinika Barrandov	tram	50.03405	14.374547
Poliklinika Budějovická	bus	50.043232	14.45003
Poliklinika Černý Most	bus	50.1078339	14.5723839
Poliklinika Čumpelíkova	bus	50.1269569	14.46057
Poliklinika Frýdecká	bus	50.13881	14.5087328
Poliklinika Háje	bus	50.0337677	14.5273008
Poliklinika Lípa	bus	50.0512657	14.3462238
Poliklinika Malešice	bus	50.08063	14.50116
Poliklinika Mazurská	bus	50.12746	14.4133062
Poliklinika Modřany	tram	50.00459	14.4187489
Poliklinika Na Dlouhém Lánu	bus	50.09676	14.3649082
Poliklinika Petrovice	bus	50.03995	14.5601845
Poliklinika Petřiny	bus	50.090023	14.35801
Poliklinika Prosek	bus	50.1281357	14.4922857
Poliklinika Vysočany	tram	50.1089745	14.4948635
Poliklinika Zahradní Město	bus	50.0565834	14.497467
Polygrafická	bus	50.0797157	14.5194387
Pošta Újezd nad Lesy	bus	50.0737572	14.65528
Poštovka	tram	50.06855	14.3543
Poštovská	tram	50.1106224	14.5083351
Povltavská	bus	50.1160774	14.4338169
Práčská	bus	50.05369	14.5107422
Praha hlavní nádraží	train	50.0830956	14.4361944
Praha Masarykovo nádr.	train	50.0879364	14.43374
Praha-Běchovice	train	50.0821953	14.5980272
Praha-Běchovice střed	train	50.0836258	14.6155853
Praha-Braník	train	50.02802	14.4069958
Praha-Bubny	undefined	50.1023026	14.4388523
Praha-Cibulka	train	50.0645752	14.3621759
Praha-Čakovice	train	50.149044	14.5191345
Praha-Dejvice	train	50.0969772	14.3996859
Praha-Dolní Počernice	train	50.08828	14.5693016
Praha-Eden	train	50.0657845	14.4717693
Praha-Hlubočepy	train	50.0407	14.3938665
Praha-Holešovice	train	50.11053	14.4397707
Praha-Holešovice zast.	train	50.1061058	14.4373226
Praha-Holyně	train	50.0328445	14.3485479
Praha-Horní Měcholupy	train	50.0480232	14.56557
Praha-Horní Počernice	train	50.1166878	14.6126947
Praha-Hostivař	train	50.05496	14.53823
Praha-Jinonice	train	50.0555878	14.3719664
Praha-Kačerov	train	50.0417175	14.46181
Praha-Kbely	train	50.1348343	14.5558109
Praha-Klánovice	train	50.0871658	14.6639967
Praha-Kolovraty	train	50.0139542	14.62579
Praha-Komořany	train	49.9909554	14.404417
Praha-Krč	train	50.03418	14.4459686
Praha-Kyje	train	50.09756	14.5431738
Praha-Libeň	train	50.10079	14.5016632
Praha-Modřany zast.	train	50.00394	14.4030924
Praha-Podbaba	train	50.11281	14.3947468
Praha-Radotín	train	49.9858742	14.3640652
Praha-Rajská zahrada	train	50.1075325	14.5601788
Praha-Ruzyně	train	50.0842247	14.3121614
Praha-Řeporyje	train	50.0325127	14.3083057
Praha-Satalice	train	50.12296	14.5709038
Praha-Sedlec	train	50.1320457	14.3943043
Praha-Smíchov	train	50.06131	14.40813
Praha-Stodůlky	train	50.0622063	14.3461075
Praha-Uhříněves	train	50.0335	14.5917139
Praha-Veleslavín	train	50.0949936	14.3461876
Praha-Velká Chuchle	train	50.01134	14.3888969
Praha-Vršovice	train	50.064518	14.44767
Praha-Vysočany	train	50.11235	14.4973583
Praha-Zahradní Město	train	50.0623131	14.5041409
Praha-Zbraslav	train	49.97053	14.3997126
Praha-Zličín	train	50.0641441	14.2978191
Praha-Žvahov	train	50.0456734	14.4024277
Pramenná	bus	49.9949646	14.4874144
Prašná	bus	50.035	14.5208836
Prašný most	tram	50.09491	14.3962765
Právnická fakulta	tram	50.0917053	14.4178619
Pražská čtvrť	bus	50.0282021	14.3668509
Pražského povstání	metroC	50.05654	14.4345293
Pražský hrad	tram	50.0933151	14.3979626
Prebslova	bus	50.16808	14.522378
Prosecká	trolleybus	50.11736	14.4971542
Prosek	metroC	50.11904	14.5004625
Průběžná	tram	50.071434	14.4856491
Průhonský háj	bus	50.11005	14.3408165
Průchova	bus	50.0623856	14.3659668
Průmstav	bus	50.0470428	14.5751829
Průmyslová	bus	50.0724144	14.5354748
Prunéřovská	bus	50.1439323	14.450984
Prvomájová	bus	49.9850655	14.3571167
Přední Kopanina	bus	50.1168175	14.2988167
Přeštická	bus	50.04459	14.5123186
Přeštínská	bus	49.9932175	14.3774586
Příborská	bus	50.1314621	14.5109444
Příbramská	bus	49.9777641	14.346405
Přímské náměstí	bus	50.09885	14.6787176
Přírodní	bus	50.013134	14.452817
Přístav Holešovice	bus	50.1048	14.4557028
Přístav Radotín	bus	49.9943848	14.3931313
Přístaviště	tram	50.0403137	14.4096384
Přívorská	bus	50.1361237	14.43619
Přívozní	bus	50.1102829	14.4514189
Psohlavců	bus	50.0266	14.4169168
Pučálka	bus	50.1122665	14.3580256
Radhošťská	tram	50.077652	14.4572792
Radimova	bus	50.0875664	14.3656654
Radiová	bus	50.0694275	14.5370684
Radlická	metroB	50.05835	14.3892841
Radnice Praha 12	bus	50.0025024	14.4141216
Radnice Praha 6	bus	50.1004868	14.4009762
Radnice Řepy	bus	50.07285	14.3076134
Radonická	trolleybus	50.1548271	14.5383978
Radošovická	tram	50.06694	14.4960423
Radouňova	bus	50.03942	14.3176146
Raichlova	bus	50.0391731	14.32821
Rájecká	bus	50.0249443	14.6019526
Rajská zahrada	metroB	50.1061668	14.5585508
Rápošovská	bus	50.0771561	14.6550207
Reinerova	bus	50.0748367	14.3103027
Rektorská	bus	50.08755	14.5068007
Rembrandtova	bus	50.0678673	14.512701
Rohožnická	bus	50.07316	14.6786985
Rokoska	bus	50.117218	14.4579334
Rokycanova	bus	50.08622	14.45553
Ronalda Reagana	bus	50.1013947	14.40478
Ronešova	bus	50.1071548	14.5661831
Rooseveltova	bus	50.10374	14.3994112
Rosečská	bus	50.03815	14.453434
Rousínovská	bus	50.1458969	14.5724592
Roztocká	bus	50.1273651	14.39883
Roztylské náměstí	bus	50.0444946	14.478797
Roztyly	metroC	50.0375252	14.4788427
Rozýnova	bus	50.08005	14.3682337
Rtyňská	bus	50.0817	14.5724058
Ruská	tram	50.07166	14.451273
Ruzyňská	bus	50.0855331	14.3248615
Ruzyňská škola	bus	50.08357	14.3183336
Ruzyňský hřbitov	bus	50.07607	14.3123665
Ruzyňský velkoobchod	bus	50.0865631	14.3145819
Rychnovská	bus	50.1355	14.5142174
Ryšánka	bus	50.04038	14.436367
Řepčická	bus	50.04805	14.5450344
Řepínská	bus	50.13387	14.4302168
Řeporyjské náměstí	bus	50.03275	14.3118839
Řezáčovo náměstí	bus	50.1007652	14.4372
Říčanova	tram	50.0814476	14.3533468
Římská	bus	50.076973	14.4354191
Safírová	bus	49.9895668	14.3504171
Santoška	bus	50.06671	14.399107
Satalice	bus	50.1252747	14.5725851
Satalická obora	bus	50.12647	14.5752172
Sdružení	bus	50.0544167	14.4424505
Sedlec	ferry	50.13468	14.3919048
Sedlecký přívoz	bus	50.1337	14.393034
Sekeřická	bus	50.1130524	14.6101294
Selských baterií	bus	50.0739822	14.3165636
Serpentina	bus	50.03608	14.4010229
Severozápadní	bus	50.0469131	14.4764376
Sezemická	bus	50.12441	14.6190472
Schengenská	trolleybus	50.10626	14.272439
Schodová	bus	50.06824	14.3632364
Sibeliova	tram	50.09278	14.3842039
Sibiřské náměstí	bus	50.104702	14.406
Sídliště Baba	bus	50.1159134	14.3869419
Sídliště Barrandov	tram	50.0315	14.3684816
Sídliště Bohnice	bus	50.1318	14.4096174
Sídliště Čakovice	trolleybus	50.1577644	14.5200863
Sídliště Černý Most	bus	50.1021347	14.5829334
Sídliště Červený Vrch	tram	50.09798	14.3591881
Sídliště Čimice	bus	50.14319	14.4313145
Sídliště Ďáblice	tram	50.1327057	14.4794893
Sídliště Hloubětín	tram	50.1065521	14.5428905
Sídliště Homolka	bus	50.0737	14.3514338
Sídliště Horní Počernice	bus	50.11099	14.6137619
Sídliště Jahodnice	bus	50.0886574	14.550993
Sídliště Jinonice	bus	50.0510139	14.3651667
Sídliště Kobylisy	bus	50.127533	14.4522505
Sídliště Krč	bus	50.0227776	14.4513054
Sídliště Lehovec	bus	50.1032524	14.548934
Sídliště Letňany	bus	50.1427574	14.5066338
Sídliště Lhotka	bus	50.01715	14.4326839
Sídliště Libuš	tram	50.00615	14.4542837
Sídliště Malešice	bus	50.08267	14.5064459
Sídliště Modřany	tram	50.00523	14.4325285
Sídliště Na Dědině	tram	50.0897751	14.3099184
Sídliště Na Groši	bus	50.0576057	14.5214272
Sídliště Novodvorská	bus	50.0249176	14.4345036
Sídliště Pankrác	bus	50.0489	14.4340334
Sídliště Petrovice	bus	50.0342636	14.5638866
Sídliště Petřiny	tram	50.0869751	14.3397741
Sídliště Písnice	bus	50.00061	14.4664869
Sídliště Prosek	bus	50.1220627	14.49404
Sídliště Radotín	bus	49.98025	14.3533325
Sídliště Rohožník	bus	50.0726166	14.681551
Sídliště Řepy	tram	50.0651436	14.2989044
Sídliště Skalka	bus	50.0625343	14.5111341
Sídliště Spořilov	bus	50.048	14.49075
Sídliště Uhříněves	bus	50.03098	14.61196
Sídliště Zahradní Město	tram	50.05729	14.5126009
Sídliště Zbraslav	bus	49.9682	14.38455
Sídliště Zličín	bus	50.0604553	14.2929688
Sídlištní	bus	50.12695	14.3782558
Sicherova	bus	50.1150475	14.5611172
Skalka	metroA	50.0681877	14.5077391
Skládka Ďáblice	bus	50.15416	14.4857073
Sklářská	bus	50.0571976	14.53637
Skloněná	bus	50.1002159	14.4868259
Slánská	tram	50.06447	14.3094015
Slatiňanská	bus	50.10797	14.5912361
Slatinová	bus	50.037674	14.3227959
Slavia - Nádraží Eden	tram	50.0695534	14.4706573
Slavínského	bus	50.03316	14.3855648
Slivenec	tram	50.0236626	14.3518324
Slovinská	bus	50.07059	14.4600716
Služská	bus	50.12467	14.44914
Smaragdová	bus	50.02648	14.36071
Smíchovské nádraží	metroB	50.0614624	14.4092731
Smíchovský hřbitov	bus	50.0620651	14.3894434
Smiřická	bus	50.0897522	14.6664886
Smržovská	bus	50.09509	14.6690435
Sobín	bus	50.0675545	14.2639112
Solidarita	tram	50.07689	14.4938288
Solná	bus	49.9965553	14.3662853
Soukalova	undefined	50.0057449	14.4151754
Sovákova	bus	50.1233559	14.5808554
Sovenická	bus	50.13765	14.5470676
Spalovna Malešice	bus	50.0789146	14.5378447
Sparta	tram	50.09926	14.4186
Spiritka	bus	50.07737	14.3683195
Spojovací	tram	50.0918427	14.4985991
Spolská	bus	50.09058	14.5413218
Sportareál Satalice	bus	50.1235466	14.566884
Sportovní centrum Horní Počernice	bus	50.11163	14.6096983
Sportovní centrum Kbely	bus	50.1350746	14.5443678
Sportovní centrum Řepy	bus	50.0668678	14.2956648
Spořilov	tram	50.05094	14.4822063
Správa sociálního zabezpečení	bus	50.05885	14.4059505
Stadion Strahov	bus	50.0783539	14.388195
Stachova	bus	50.03512	14.5315437
Stará Holyně	bus	50.02978	14.3571568
Stará Libuš	bus	50.0078659	14.463
Stará obec	bus	50.0886765	14.5778389
Stará Stodůlecká	bus	50.0495	14.3569841
Staré Bohnice	bus	50.1333122	14.4158049
Staré Letňany	bus	50.1379662	14.5170555
Staré náměstí	bus	50.0822144	14.31069
Staré Strašnice	tram	50.0684357	14.492631
Starodejvická	bus	50.096962	14.3710356
Starochuchelská	bus	50.01145	14.3858671
Starolázeňská	bus	50.0163841	14.389595
Staroměstská	metroA	50.0882	14.4153233
Staroměstské náměstí	bus	50.0879364	14.4208908
Starý Hloubětín	tram	50.10465	14.52997
Starý Prosek	bus	50.11785	14.4913836
Starý Spořilov	bus	50.0425	14.4736338
Starý Zličín	bus	50.06185	14.2806835
Stavební zóna Horní Počernice	bus	50.1164322	14.599371
Stodůlky	metroB	50.0465355	14.3080168
Stodůlky-Bavorská	bus	50.0541267	14.31087
Stochovská	bus	50.08307	14.3113108
Strašnická	metroA	50.0726	14.49049
Strážní	tram	50.0923157	14.4815359
Strnady	bus	49.9455681	14.3944168
Strojírenská	bus	50.0658646	14.2883987
Strossmayerovo náměstí	tram	50.098896	14.4328928
Středočeská	bus	50.0743942	14.4074249
Střelničná	tram	50.1257744	14.458662
Střížkov	metroC	50.1259766	14.4888868
Studenecká	bus	50.0871239	14.5758057
Studentský dům	bus	50.1058655	14.3899212
Sudějovická	bus	50.0751076	14.6662111
Suchdol	bus	50.13903	14.3789215
Suchdolské náměstí	bus	50.13609	14.3806973
Sukovská	bus	50.01598	14.5362358
Sulická	bus	50.0264854	14.4458675
Sušická	bus	50.1018372	14.3728085
Svatoňovická	bus	50.08373	14.5742855
Svatoplukova	tram	50.0651	14.4291735
Svépravice	bus	50.1029167	14.6104679
Sychrov	bus	50.12036	14.65821
Šafránecká	bus	50.075882	14.3450508
Šafránkova	bus	50.05842	14.3394165
Šatovka	bus	50.1175346	14.3748674
Šeberák	bus	50.012	14.490634
Šeberov	bus	50.0177841	14.5108175
Šedivého	bus	50.0709229	14.3146334
Šimůnkova	bus	50.1326523	14.4701338
Škola Dolní Počernice	bus	50.0885048	14.5811644
Škola Dubeč	bus	50.06325	14.5914011
Škola Kolovraty	bus	50.0111	14.6276846
Škola Lipence	bus	49.9606819	14.3561
Škola Nebušice	bus	50.1109772	14.3305387
Škola Poštovka	bus	50.069	14.355196
Škola Radlice	tram	50.0600166	14.394
Škola Radotín	bus	49.9812469	14.3604908
Škola Řepy	bus	50.069	14.2963161
Škola Slivenec	bus	50.0193825	14.3541527
Škola Šeberov	bus	50.0066643	14.5166864
Škola Štěrboholy	bus	50.0721169	14.5526266
Škola Velká Chuchle	bus	50.0120163	14.3823328
Šmukýřka	bus	50.064167	14.3704834
Špejchar	tram	50.09734	14.4102974
Šperlova	bus	50.0342674	14.5109005
Špitálka	bus	50.1099	14.376358
Špitálská	tram	50.1111221	14.5046272
Šporkova	bus	50.0874	14.3981009
Štefkova	bus	50.0797844	14.3532839
Štěchovická	bus	50.07203	14.50101
Štěpánská	tram	50.0756874	14.4224319
Štěpařská	bus	50.032032	14.3734837
Štěpnice	bus	50.1279526	14.3677416
Štěpničná	tram	50.1279755	14.4772806
Štěrboholy	bus	50.07165	14.5502844
Štorchova	bus	50.10302	14.4684706
Štorkánova	bus	50.06166	14.3934011
Štvanice	tram	50.0951347	14.43689
Šumavská	tram	50.0754	14.4441853
Šumperská	bus	50.13592	14.5090609
Švandovo divadlo	tram	50.0784836	14.4041748
Tachovské náměstí	bus	50.0871849	14.4522734
Talichova	bus	50.0886269	14.3656864
Tálínská	bus	50.1004829	14.544631
Tehovičky	bus	50.0135345	14.622818
Televizní věž	bus	50.080307	14.374423
Tempo	bus	50.0198822	14.451951
Teplárna Malešice	bus	50.0828667	14.5269346
Teplárna Michle	tram	50.05303	14.474371
Teplárna Třeboradice	bus	50.16338	14.5147572
Teplická	bus	50.1252327	14.4863482
Terasy	bus	50.036972	14.39987
Terminál 1	trolleybus	50.1079	14.2688322
Terminál 2	trolleybus	50.10495	14.270216
Terminál 3	trolleybus	50.0989761	14.288949
Těšnov	tram	50.0916748	14.43649
Thákurova	tram	50.1001053	14.3870459
Tiskařská	bus	50.08265	14.53435
Točná	bus	49.9728	14.4318008
Topolová	bus	50.05372	14.5076342
Toufarova	bus	50.0423737	14.30954
Toulcův dvůr	bus	50.04785	14.519084
Toužimská	bus	50.1363525	14.5224009
Továrny Hostivař	bus	50.05628	14.5432625
Trojská	tram	50.11618	14.4331179
Truhlářská	bus	50.08946	14.4286833
Trutnovská	trolleybus	50.1463	14.5059
Třebenická	tram	50.1295357	14.4809046
Třebešín	bus	50.08397	14.4818506
Třebešovská	bus	50.11562	14.62592
Třebonice	bus	50.0451736	14.280344
Třeboradice	bus	50.1638	14.5245171
Třeboradický hřbitov	bus	50.15935	14.5230675
Třinecká	bus	50.1343727	14.5098362
Tuháňská	bus	50.1582527	14.54275
Tupolevova	trolleybus	50.1346436	14.5059814
Tusarova	tram	50.1007767	14.450017
Tylova čtvrť	bus	50.00805	14.4154339
Tyršova čtvrť	bus	50.0141029	14.411273
U Belárie	bus	50.0167274	14.403429
U Bílého Mlýnku	bus	50.15627	14.5276175
U Blaženky	bus	50.06793	14.3849134
U Dálnice	bus	50.0204849	14.5077009
U Dobešky	bus	50.0403023	14.418951
U Drahaně	bus	50.1353722	14.4161625
U Elektry	tram	50.1034622	14.5185566
U Háje	bus	50.0412445	14.4222269
U Hangáru	trolleybus	50.10816	14.2779064
U Jahodnice	bus	50.0842133	14.5506115
U Jankovky	bus	49.9878845	14.3673334
U Kapličky	bus	49.9622345	14.3609009
U Kaštanu	tram	50.0836258	14.36335
U Kestřánků	bus	49.9869347	14.3568144
U Kříže	tram	50.11211	14.475318
U Křížku	bus	50.01602	14.356596
U Kundratky	bus	50.11782	14.4880247
U Kunratického lesa	bus	50.0225067	14.4891758
U Labutě	bus	50.03614	14.4561262
U Ladronky	bus	50.0799	14.3617964
U Lesíka	bus	50.06445	14.3581171
U Libušské sokolovny	bus	50.00445	14.4645338
U Libušského potoka	tram	50.00555	14.4230022
U Lípy	bus	50.0530853	14.4941177
U Lomů	bus	49.9967957	14.3390474
U Matěje	bus	50.1122	14.3799009
U Měchurky	bus	50.0645676	14.3779173
U Mezníku	bus	50.0510826	14.6231918
U Mlejna	bus	50.0274162	14.6021175
U Nemocnice	bus	50.07356	14.42096
U Palaty	bus	50.07728	14.38787
U Památníku	bus	50.08666	14.4466763
U Počernického rybníka	bus	50.08493	14.5923138
U Prdlavky	bus	50.0811157	14.4455252
U Prioru	bus	50.0870934	14.3188448
U Průhonu	tram	50.1049232	14.4500265
U Průseku	bus	50.05902	14.5175047
U Radiály	bus	50.07563	14.5536261
U Rozcestí	bus	50.0166359	14.6350174
U Rumpálu	bus	50.1332321	14.5485582
U Spojů	bus	50.14562	14.4751511
U Staré pošty	bus	50.036026	14.411521
U Staré školy	bus	50.0901756	14.4210873
U Střediska	bus	50.05875	14.5582342
U Studánky	bus	49.9984741	14.4828224
U Školy	bus	50.04397	14.4215841
U Tabulky	bus	50.11771	14.6019783
U Továren	bus	50.056366	14.5398006
U Trezorky	bus	50.05574	14.3755178
U Tří svatých	bus	50.01232	14.4779549
U Uhříněveské obory	bus	50.0392227	14.590106
U Václava	bus	50.11445	14.3120632
U Včely	bus	49.96841	14.3876228
U Vodojemu	bus	50.12252	14.5275116
U Vody	bus	50.11059	14.4481583
U Vojenské nemocnice	bus	50.0900764	14.364172
U Waltrovky	bus	50.05865	14.3713837
U Zvoničky	bus	50.01025	14.46041
U Zvonu	tram	50.07154	14.3872185
U Žlábku	bus	49.9596558	14.36679
Uhříněves	bus	50.029995	14.6054993
Uhříněveský hřbitov	bus	50.0275154	14.6163006
Újezd	tram	50.0816765	14.4044437
Újezd nad Lesy	bus	50.0761452	14.6604748
Újezd u Průhonic	bus	50.01244	14.5465708
Ukrajinská	bus	50.0645828	14.4525843
Univerzitní	bus	50.085392	14.5016937
Urbanova	bus	50.0627174	14.3842
Urxova	tram	50.0951843	14.4563847
Ústav mateřství	bus	50.0245323	14.4599237
Ústavy Akademie věd	bus	50.0179329	14.46695
Ústřední	bus	50.06904	14.543499
Ústřední dílny DP	tram	50.07429	14.5323524
V Bokách	bus	50.0380173	14.3897667
V Chotejně	bus	50.057682	14.5326281
V Korytech	bus	50.0544624	14.4888639
V Kratinách	bus	50.1455765	14.4422169
V Ladech	bus	50.0132179	14.5137339
V Lískách	bus	50.019783	14.4638
V Mokřinách	bus	50.02025	14.4079008
V Nových domcích	bus	50.0564346	14.5341339
V Podbabě	bus	50.12117	14.3936357
V Přístavu	bus	50.1083	14.453804
V Remízku	bus	50.0261459	14.36858
V Rybníčkách	bus	50.0705566	14.5069141
V Sedlci	bus	50.1282539	14.3946419
V Sudech	bus	49.9920349	14.3463507
V Uličce	bus	50.0414429	14.3957787
V Zápolí	bus	50.0461159	14.4681005
V Zátiší	bus	50.0225334	14.4335
Vackov	bus	50.0868225	14.4868813
Vackova	bus	50.04505	14.3153334
Václava Špačka	bus	50.0979538	14.6255741
Václavka	bus	50.0652	14.3930006
Václavská	bus	50.0745239	14.417532
Václavské náměstí	tram	50.08167	14.4252787
Vajgarská	bus	50.1020851	14.5545673
Valdštejnské náměstí	bus	50.0902939	14.4051132
Valcha	bus	50.1317139	14.5381546
Valtická	bus	50.06646	14.2659359
Ve Smečkách	bus	50.0773277	14.4260616
Ve Studeném	bus	50.03159	14.4239864
Ve Vilkách	bus	50.01551	14.5396309
Ve Výrech	bus	50.034935	14.3067055
Ve Žlíbku	bus	50.1111946	14.6243849
Veletržní palác	tram	50.1022453	14.4328127
Velká Chuchle	bus	50.01215	14.3807335
Velká Ohrada	bus	50.0353737	14.3358765
Venušina	bus	50.0258179	14.6087923
Veronské náměstí	bus	50.0401878	14.5580664
Větrník	tram	50.0897522	14.3511944
Větrov	bus	50.0736656	14.4243927
Vidoule	bus	50.0556831	14.3651
Viktoria Žižkov	tram	50.08509	14.4444942
Vinice	tram	50.0770264	14.4875965
Vinice Dolní Počernice	bus	50.08585	14.6010513
Vinice Hrdlořezy	bus	50.1001663	14.5178547
Viničky	bus	49.9792557	14.3478508
Vinohradská tržnice	tram	50.0770226	14.4427319
Vinohradská vodárna	tram	50.07544	14.4493246
Vinohradské hřbitovy	tram	50.0777931	14.4796438
Vinopalnická	bus	50.1199532	14.4703894
Vinoř	bus	50.15172	14.59078
Vinořská	bus	50.1399879	14.5758982
Vinořský hřbitov	bus	50.1453362	14.5814009
Vinořský zámek	bus	50.1427574	14.5786152
Višňová	bus	50.0312347	14.4476
Vítězné náměstí	tram	50.0995255	14.39549
Vlastibořská	bus	50.1203	14.5988159
Vlastina	tram	50.0913048	14.31736
Vlašimská	bus	50.0744858	14.4636841
Vlnitá	bus	50.0355	14.4219007
Vltavská	metroC	50.0992279	14.4381218
Vodičkova	tram	50.07966	14.4227362
Vojenská nemocnice	tram	50.0917358	14.360301
Vojetická	bus	49.9764977	14.3481436
Vojická	bus	50.1137	14.6034346
Volha	bus	50.02143	14.4937134
Volyňská	bus	50.0735245	14.47194
Voňkova	bus	50.0988579	14.6672621
Vosmíkových	tram	50.1143875	14.4735737
Vozovna Hloubětín	tram	50.10788	14.5284014
Vozovna Kobylisy	tram	50.13281	14.4535465
Vozovna Motol	tram	50.0678558	14.3414583
Vozovna Pankrác	tram	50.05707	14.437892
Vozovna Strašnice	tram	50.0755577	14.489645
Vozovna Střešovice	tram	50.093895	14.3899612
Vozovna Vokovice	tram	50.092926	14.3304691
Vozovna Žižkov	tram	50.0916824	14.475441
Vožická	bus	50.00928	14.4932232
Vrážská	bus	49.98975	14.3695507
Vrbova	bus	50.03184	14.4269257
Vršovické náměstí	tram	50.0691566	14.45422
Vršovický hřbitov	bus	50.0629654	14.4669838
Všestarská	bus	50.1004524	14.6626244
VÚ Běchovice	bus	50.0894165	14.61235
Výhledské náměstí	bus	50.13509	14.3733177
Výhledy	bus	50.13719	14.3686876
Vychovatelna	tram	50.1190453	14.46463
Vypich	tram	50.07984	14.34757
Vyskočilova	bus	50.0484734	14.45808
Vysočanská	metroB	50.1115036	14.5026817
Výstaviště	tram	50.1044	14.4319124
Výstaviště Letňany	trolleybus	50.1286659	14.5116529
Vyšehrad	metroC	50.0591	14.4306335
Výtoň	tram	50.0681229	14.4150066
Výzkumný ústav vodohospodářský	bus	50.11556	14.3932791
Wagnerova	bus	50.0360336	14.5273046
Wattova	bus	50.03745	14.5619841
Weberova	bus	50.0735	14.3555
Winklerova	bus	50.0652046	14.5960112
Xaverov	bus	50.1017151	14.6252909
Xaverovský háj	bus	50.1010857	14.6197338
Za Avií	trolleybus	50.1507339	14.514184
Za Čimickým hájem	bus	50.1354828	14.4473009
Za Farou	bus	50.02017	14.3500166
Za Horou	bus	50.0918121	14.5353174
Za Chalupami	bus	50.0053	14.356
Za Kapličkou	bus	50.12793	14.5726223
Za Mototechnou	bus	50.0590134	14.3281565
Za Nadjezdem	bus	50.056778	14.5485964
Za Novákovou zahradou	bus	50.1240578	14.5767241
Za Pavilonem	bus	50.0608826	14.588501
Za Skalkou	bus	50.0457535	14.41922
Za Slánskou silnicí	bus	50.0710831	14.305934
Za Tratí	bus	50.1671638	14.5190115
Záběhlice	bus	50.0560837	14.4792786
Záběhlická škola	bus	50.0529556	14.5038576
Zadní Jiviny	bus	50.07704	14.2986374
Zadní Kopanina	bus	50.00652	14.3126879
Záhorského	bus	50.0302849	14.3702669
Zahrádky	bus	50.0274	14.3122835
Zahradní Město	tram	50.06078	14.5051384
Zahradnictví	bus	50.0030022	14.3837671
Zahradníčkova	bus	50.0695076	14.3365135
Zálesí	bus	50.0283	14.4515839
Zálužická	bus	49.9905434	14.4422321
Zamašská	bus	50.1405525	14.5470467
Zamenhofova	bus	50.076088	14.5375328
Zámky	bus	50.1374321	14.3958168
Zapova	bus	50.0739021	14.38955
Zásadská	bus	50.12867	14.4971285
Zatáčka	bus	50.0253	14.424634
Zátišská	bus	50.0166855	14.4111509
Záveská	bus	50.0533028	14.5224714
Závist	bus	49.97586	14.4009056
Závodiště Chuchle	bus	50.0076141	14.3887959
Zborov - Strašnické divadlo	tram	50.0773125	14.5003109
Zborovská	tram	50.0724	14.4080925
Zbraslav	bus	49.95915	14.3826876
Zbraslavské náměstí	bus	49.97591	14.3940239
Zbyslavská	bus	50.074	14.6720047
Zderazská	bus	49.9807053	14.3480434
Zdická	bus	49.9775658	14.3505936
Zdiměřická	bus	50.02197	14.5177336
Zelená	tram	50.1070824	14.3952837
Zelená liška	bus	50.048336	14.4435434
Zelené domky	bus	50.0155678	14.4699249
Zelený pruh	bus	50.0394325	14.4272175
Zemanka	bus	50.0392838	14.422967
Zemědělská univerzita	bus	50.1336823	14.3777075
Zentiva	bus	50.0615234	14.5461826
Zhořelecká	bus	50.1313438	14.4180164
Zličín	metroB	50.0542374	14.2904291
Zlíchov	tram	50.04657	14.4080973
Zmrzlík	bus	50.0108681	14.3126335
Zoo Praha - Sklenářka	bus	50.1203575	14.4034262
Zoo Praha - Troja	bus	50.11675	14.4117346
Zvonařka	tram	50.0706863	14.4341726
Žabovřeská	bus	49.9702835	14.385684
Žabovřesky	bus	49.9648247	14.3831615
Žákovská	bus	50.12597	14.3726063
Žárská	bus	50.1056557	14.5529776
Želivecká	bus	50.0588531	14.4934578
Želivského	metroA	50.0784149	14.4742584
Ženské domovy	bus	50.06857	14.400691
Žežulka	bus	50.1185341	14.3817835
Živcová	bus	49.9908	14.3683605
Žvahov	bus	50.0439873	14.4014511
